Time (HH:mm:ss.fff),Time (GPS ns),UTC offset (s),Time from start of file (s),Latitude (deg),Longitude (deg),Altitude (m),Velocity north (m/s),Velocity east (m/s),Velocity down (m/s),Acceleration Xv (m/s²),Acceleration Yv (m/s²),Acceleration Zv (m/s²),Heading (deg),Pitch (deg),Roll (deg),Velocity up (m/s),Number of GNSS satellites used (),GpsAttNumObs (),GpsVelNumObs (),Total number of satellites used in position solution (gx/ix only) (),Primary GPS number of satellites tracked (),External GPS number of satellites tracked (),Secondary GPS number of satellites tracked (),GPS position mode (),GPS velocity mode (),GPS dual antenna attitude mode (),Primary GPS position mode (),External GPS position mode (),Secondary GPS position mode (),Position accuracy north (m),Position accuracy east (m),Position accuracy down (m),Heading accuracy (deg),Pitch accuracy (deg),Roll accuracy (deg),GPS satellites used in position solution (gx/ix only) (),Glonass satellites used in position solution (gx/ix only) (),Galileo satellites used in position solution (gx/ix only) (),Beidou satellites used in position solution (gx/ix only) ()
00:26:29.402,1426379207402000000,-18,0.402000000,37.4355440244612,-121.884928162495,16.3388938903809,-3.3909,-13.6782,0.0899,0.6856,-0.2295,-9.1331,256.043339792377,-0.475898744635662,1.50063376122714,-0.0899,10,,,,,,,gxInteger (24),gxInteger (24),None (0),,,,,,,0.105997192099202,0.0338045099127186,0.0343774677078494,0,0,0,0
00:26:30.402,1426379208402000000,-18,1.402000000,37.4355123764135,-121.885085855604,16.2355098724365,-3.6038,-14.1518,0.0989,0.2676,-0.4732,-9.3328,255.690741565253,-0.340680704984787,1.21982714583352,-0.0989,10,0,17,10,22,,9,gxInteger (24),gxInteger (24),None (0),Differential (4),,,0.031,0.029,0.054,0.105424234304071,0.0372422566835035,0.0378152144786343,6,4,0,0
00:26:31.401,1426379209401000000,-18,2.401000000,37.4354792022378,-121.885247160963,16.1418476104736,-3.8272,-14.2573,0.0509,-0.2491,-1.0868,-8.5939,254.784322333356,-0.516636043869463,1.72695209030381,-0.0509,10,0,19,10,24,,9,gxInteger (24),gxInteger (24),None (0),RTK Float (5),,,0.023,0.021,0.046,0.105424234304071,0.0401070456591576,0.0406800034542885,6,4,0,0
00:26:32.401,1426379210401000000,-18,3.401000000,37.4354425964491,-121.885407083884,16.0251922607422,-4.2487,-14.1892,0.2175,0.2021,-0.427,-8.6964,253.288386826049,-0.837893479599316,1.23002579458685,-0.2175,12,0,20,12,24,,10,gxDifferential (22),gxInteger (24),None (0),RTK Integer (6),,,0.014,0.012,0.039,0.103705360918679,0.038961130068896,0.0395340878640268,8,4,0,0
00:26:33.400,1426379211400000000,-18,4.400000000,37.4354037503834,-121.885569763747,15.8557739257813,-4.3364,-14.6836,0.1658,0.7719,-0.0142,-10.1315,253.632333390466,-0.547747652145067,0.792629813783981,-0.1658,12,0,20,12,24,,14,gxDifferential (22),gxInteger (24),None (0),RTK Integer (6),,,0.011,0.009,0.036,0.101413529738156,0.0326585943224569,0.0332315521175878,8,4,0,0
00:26:34.400,1426379212400000000,-18,5.400000000,37.4353650147482,-121.885740615625,15.620677947998,-4.27,-15.5818,0.2694,0.8859,0.7313,-10.6582,254.903497554743,-0.751835218770666,-0.0972882336132138,-0.2694,10,0,19,11,23,,14,gxInteger (24),gxInteger (24),Search (1),RTK Integer (6),,,0.013,0.01,0.038,0.0996946563527633,0.0275019741662795,0.0280749319614103,8,4,0,0
00:26:35.400,1426379213400000000,-18,6.400000000,37.4353270779804,-121.885921482956,15.3721256256104,-4.2441,-16.2474,0.2277,0.1946,-0.1113,-10.2807,255.368395509713,-0.727656399816145,0.913294725438532,-0.2277,10,4,20,10,24,,14,gxInteger (24),gxInteger (24),None (0),RTK Integer (6),,,0.011,0.009,0.037,0.0991216985576324,0.0297938053468028,0.0303667631419336,6,4,0,0
00:26:36.400,1426379214400000000,-18,7.400000000,37.4352887428941,-121.886105692276,15.1380949020386,-4.2451,-16.3948,0.1614,0.2654,0.0624,-8.9915,255.530943636191,-0.947958672043947,0.875307623621359,-0.1614,10,4,20,10,24,,14,gxInteger (24),gxInteger (24),None (0),RTK Integer (6),,,0.012,0.009,0.04,0.0985487407625016,0.0332315521175878,0.0338045099127186,6,4,0,0
00:26:37.400,1426379215400000000,-18,8.400000000,37.4352508691409,-121.886292272794,14.8401947021484,-4.1364,-16.671,0.2792,-0.0232,-0.0001,-9.1219,256.048668299871,-1.13795147690933,0.850269367974142,-0.2792,10,4,20,10,25,,15,gxInteger (24),gxInteger (24),None (0),RTK Integer (6),,,0.029,0.027,0.048,0.0985487407625016,0.0372422566835035,0.0378152144786343,6,4,0,0
00:26:38.400,1426379216400000000,-18,9.400000000,37.4352129620562,-121.886482142298,14.5872449874878,-4.2919,-17.0274,0.139,0.3007,-0.5914,-10.1086,255.68988212856,-0.617075545355897,1.51197832557073,-0.139,10,4,20,10,25,,15,gxInteger (24),gxInteger (24),RTK Integer (6),RTK Integer (6),,,0.021,0.02,0.04,0.0991216985576324,0.0401070456591576,0.0406800034542885,6,4,0,0
00:26:39.400,1426379217400000000,-18,10.400000000,37.4351724037552,-121.886678227057,14.2945432662964,-4.682,-17.8455,0.2403,0.6047,-0.8315,-9.6298,255.140587490368,-0.56379047040873,1.32553785903516,-0.2403,12,4,21,12,27,,15,gxDifferential (22),gxInteger (24),RTK Integer (6),RTK Integer (6),,,0.012,0.011,0.034,0.0991216985576324,0.038961130068896,0.0395340878640268,8,4,0,0
00:26:40.400,1426379218400000000,-18,11.400000000,37.4351290112117,-121.886881485099,14.014422416687,-4.8694,-18.0748,0.1974,-0.1489,0.0452,-8.9252,254.845800704774,-0.740318767088537,0.824887337649846,-0.1974,12,5,21,12,27,,15,gxDifferential (22),gxInteger (24),RTK Integer (6),RTK Integer (6),,,0.01,0.009,0.032,0.101413529738156,0.0383881722737652,0.038961130068896,8,4,0,0
00:26:41.400,1426379219400000000,-18,12.400000000,37.4350846260311,-121.887086239865,13.7422399520874,-4.9947,-18.1516,0.3087,-0.0777,-0.1674,-8.7756,254.591865809972,-1.02290155164706,0.523969903647138,-0.3087,12,5,22,13,28,,15,gxInteger (24),gxInteger (24),RTK Integer (6),RTK Integer (6),,,0.009,0.008,0.032,0.100840571943025,0.0332315521175878,0.0338045099127186,8,5,0,0
00:26:42.400,1426379220400000000,-18,13.400000000,37.4350389900091,-121.887291888233,13.5440540313721,-5.0983,-18.2028,0.1296,-0.4781,-0.5376,-10.021,254.236517385432,-0.652713520213034,0.509760550327893,-0.1296,13,6,23,13,29,,16,gxInteger (24),gxInteger (24),RTK Integer (6),RTK Integer (6),,,0.105,0.105,0.126,0.101986487533287,0.0378152144786343,0.0383881722737652,7,5,0,0
00:26:43.400,1426379221400000000,-18,14.400000000,37.4349921997189,-121.887497224633,13.3820190429688,-5.249,-18.1177,0.2318,-0.2362,-0.5284,-7.7046,253.824045068717,-0.767591558136764,-0.104564797611375,-0.2318,14,6,24,14,32,,16,,gxInteger (24),RTK Integer (6),RTK Integer (6),,,0.105,0.104,0.127,0.0951109939917167,0.0395340878640268,0.0401070456591576,8,6,0,0
00:26:44.400,1426379222400000000,-18,15.400000000,37.4349444993041,-121.887701601601,13.1960754394531,-5.2856,-18.0615,0.163,-0.1303,0.0711,-9.0387,253.741653737777,-0.719062032889183,0.0338045099127186,-0.163,16,6,27,15,34,,17,gxDifferential (22),gxInteger (24),RTK Integer (6),RTK Integer (6),,,0.113,0.117,0.139,0.0945380361965859,0.0406800034542885,0.0406800034542885,8,6,0,0
00:26:45.400,1426379223400000000,-18,16.400000000,37.4348971636397,-121.887904451428,13.0291652679443,-5.1983,-18.0032,0.1627,-0.1179,-0.2222,-9.5332,253.941558712498,-0.699409580516196,-0.0980903745263969,-0.1627,16,6,30,16,36,,19,gxDifferential (22),gxInteger (24),RTK Integer (6),RTK Integer (6),,,0.157,0.162,0.151,0.0928191628111934,0.0504202859715124,0.0504202859715124,9,7,0,0
00:26:46.400,1426379224400000000,-18,17.400000000,37.4348510651662,-121.888108334369,12.8272504806519,-5.1515,-17.9655,0.2469,-0.41,0.3366,-7.5878,254.006360239128,-1.08953654322077,0.135218039650874,-0.2469,15,5,30,16,36,,20,gxDifferential (22),gxInteger (24),,RTK Integer (6),,,0.122,0.122,0.127,0.0922462050160626,0.0481284547909892,0.04870141258612,9,7,0,0
00:26:47.400,1426379225400000000,-18,18.400000000,37.4348047177905,-121.888311070286,12.6342668533325,-5.1936,-17.8793,0.1693,-0.225,-0.3326,-9.7716,253.766176331409,-0.642915941916297,0.745074316788122,-0.1693,8,5,11,8,18,,12,,,None (0),RTK Integer (6),,,0.09,0.089,0.105,0.0893814160404084,0.045263665815335,0.0458366236104659,5,3,0,0
00:26:48.400,1426379226400000000,-18,19.400000000,37.4347577011861,-121.888512661456,12.4662857055664,-5.2189,-17.7952,0.1497,-0.0183,0.1856,-9.1292,253.653532828886,-0.641655434767009,0.0690414143132642,-0.1497,0,5,5,0,1,,1,None (0),,None (0),None (0),,,0.064,0.063,0.086,0.0888084582452776,0.0429718346348117,0.0435447924299426,5,3,0,0
00:26:49.400,1426379227400000000,-18,20.400000000,37.4347108614133,-121.888713667942,12.2718238830566,-5.1669,-17.7711,0.1501,-0.2253,0.0525,-9.3628,253.774140444761,-0.664459155013216,0.0699008510059604,-0.1501,9,5,0,0,0,,0,None (0),None (0),None (0),None (0),,,0.045,0.043,0.069,0.0899543738355393,0.0401070456591576,0.0406800034542885,0,0,0,0
00:26:50.400,1426379228400000000,-18,21.400000000,37.4346642092228,-121.888914188551,12.1099767684937,-5.2145,-17.7003,0.1318,-0.1547,-0.0102,-9.6301,253.514934338244,-0.587167148450068,0.175783451546137,-0.1318,7,5,9,7,1,,0,,,None (0),None (0),,,0.036,0.033,0.057,0.0893814160404084,0.038961130068896,0.0401070456591576,4,3,0,0
00:26:51.400,1426379229400000000,-18,22.400000000,37.4346167447421,-121.889113719751,11.9563598632813,-5.3012,-17.6256,0.1902,-0.3976,-0.3413,-10.1569,253.242893977116,-0.592094585488193,0.742667894048573,-0.1902,7,5,9,7,11,,0,gxDifferential (22),gxInteger (24),None (0),,,,0.027,0.025,0.048,0.0893814160404084,0.038961130068896,0.0401070456591576,4,3,0,0
00:26:52.400,1426379230400000000,-18,23.400000000,37.4345692539134,-121.889312736472,11.8247785568237,-5.1784,-17.6171,0.0771,0.4538,-0.0254,-8.9396,253.563177384594,-0.41470685211569,0.768508290608973,-0.0771,14,5,23,12,27,,3,gxDifferential (22),gxInteger (24),None (0),SPS (3),,,0.018,0.016,0.04,0.0893814160404084,0.0383881722737652,0.0395340878640268,6,3,0,0
00:26:53.400,1426379231400000000,-18,24.400000000,37.4345222052124,-121.889513584863,11.6759357452393,-5.2935,-17.9409,0.1955,0.0729,-0.3619,-9.4483,253.529258283122,-0.438026234377514,0.0476127927753714,-0.1955,15,5,25,14,29,,7,gxDifferential (22),gxInteger (24),None (0),,,,0.01,0.009,0.035,0.0888084582452776,0.0372422566835035,0.0383881722737652,9,5,0,0
00:26:54.400,1426379232400000000,-18,25.400000000,37.4344736224646,-121.889720546874,11.4924211502075,-5.4523,-18.6206,0.2089,0.0594,0.214,-10.1607,253.652043138619,-0.483805562208467,0.223453540101021,-0.2089,15,5,26,14,31,,10,gxDifferential (22),gxInteger (24),None (0),Differential (4),,,0.019,0.018,0.036,0.0870895848598851,0.035523383298111,0.0366692988883727,8,6,0,0
00:26:55.400,1426379233400000000,-18,26.400000000,37.4344249208136,-121.889931932909,11.3094062805176,-5.3324,-18.7597,0.0824,-0.283,0.1143,-9.5684,254.038102100978,-0.556685793749108,0.248606387307264,-0.0824,15,5,28,15,31,,11,gxDifferential (22),gxInteger (24),None (0),Differential (4),,,0.01,0.009,0.032,0.087662542655016,0.0366692988883727,0.0378152144786343,9,6,0,0
00:26:56.400,1426379234400000000,-18,27.400000000,37.4343771791567,-121.890142641077,11.1592102050781,-5.2879,-18.5087,0.1027,-0.3213,-0.039,-9.0482,254.048988299085,-0.614268052159756,0.393392822136823,-0.1027,15,5,28,15,32,,12,gxDifferential (22),gxInteger (24),None (0),,,,0.01,0.008,0.033,0.0865166270647543,0.0360963410932419,0.0378152144786343,9,6,0,0
00:26:57.400,1426379235400000000,-18,28.400000000,37.4343296688986,-121.89034975966,10.9950399398804,-5.2673,-18.1321,0.1564,-0.5997,-0.0246,-10.0409,253.810179490075,-0.670188732964524,-0.0107143107689464,-0.1564,16,5,28,15,32,,15,,gxInteger (24),None (0),RTK Integer (6),,,0.019,0.018,0.038,0.0859436692696235,0.0326585943224569,0.0338045099127186,9,6,0,0
00:26:58.400,1426379236400000000,-18,29.400000000,37.434282445888,-121.890552539631,10.8442239761353,-5.2529,-17.7507,0.174,-0.4235,-0.3007,-9.5991,253.414953202994,-0.871010440157877,0.360390453137288,-0.174,15,6,28,15,32,,15,gxDifferential (22),gxInteger (24),RTK Integer (6),RTK Integer (6),,,0.011,0.01,0.033,0.0870895848598851,0.0343774677078494,0.035523383298111,9,7,0,0
00:26:59.400,1426379237400000000,-18,30.400000000,37.4342349572265,-121.890751702678,10.6149215698242,-5.2666,-17.62,0.1709,-0.084,0.2628,-10.287,253.395759116857,-0.635639377918135,0.101241642399616,-0.1709,15,5,29,15,32,,16,gxDifferential (22),gxInteger (24),RTK Integer (6),RTK Integer (6),,,0.011,0.009,0.033,0.0847977536793618,0.029220847551672,0.0297938053468028,9,6,0,0
00:27:00.400,1426379238400000000,-18,31.400000000,37.4341883202275,-121.890951430726,10.4294672012329,-5.0981,-17.6974,0.2585,-0.2005,0.0985,-9.7381,253.918124738677,-0.796984293026975,0.564248836644835,-0.2585,14,5,26,15,31,,15,,gxInteger (24),RTK Integer (6),RTK Integer (6),,,0.01,0.008,0.033,0.084224795884231,0.0234912696003638,0.0252101429857562,9,7,0,0
00:27:01.400,1426379239400000000,-18,32.400000000,37.4341426234473,-121.891150985187,10.2440423965454,-5.038,-17.627,0.2806,-0.4979,-0.2608,-9.9163,254.002177647223,-0.908825654636512,0.781858207235521,-0.2806,15,5,27,15,31,,15,,gxInteger (24),RTK Integer (6),RTK Integer (6),,,0.014,0.011,0.038,0.0836518380891002,0.0269290163711487,0.0280749319614103,9,6,0,0
00:27:02.400,1426379240400000000,-18,33.400000000,37.4340982809675,-121.891349849598,10.0930109024048,-4.6907,-17.6568,0.2076,-0.2267,0.3743,-9.5623,255.103173346346,-0.651453013063746,0.384340088973756,-0.2076,13,5,25,13,30,,15,,gxInteger (24),RTK Integer (6),RTK Integer (6),,,0.028,0.024,0.044,0.0836518380891002,0.0297938053468028,0.0315126787321953,8,6,0,0
00:27:03.400,1426379241400000000,-18,34.400000000,37.4340577607666,-121.891550511916,9.90442657470703,-4.3484,-17.8769,0.2023,0.3114,0.0218,-9.3798,256.275616882523,-0.696487495761029,0.199733087382605,-0.2023,14,5,26,14,31,,14,,gxInteger (24),RTK Integer (6),RTK Integer (6),,,0.019,0.016,0.039,0.0825059224988385,0.0326585943224569,0.0343774677078494,8,6,0,0
00:27:04.400,1426379242400000000,-18,35.400000000,37.4340190726332,-121.891754409445,9.67802143096924,-4.2833,-18.1991,0.2171,0.2797,-0.0301,-9.7398,256.69840243955,-0.59054759944134,0.279832587141894,-0.2171,13,4,26,13,30,,14,gxDifferential (22),gxInteger (24),RTK Integer (6),RTK Integer (6),,,0.016,0.012,0.037,0.0819329647037077,0.0269290163711487,0.0275019741662795,8,5,0,0
00:27:05.400,1426379243400000000,-18,36.400000000,37.4339804173577,-121.891960901081,9.42595195770264,-4.4836,-18.2576,0.2091,0.1629,-0.3444,-9.34,256.093874669907,-0.573416161366928,1.00554093045459,-0.2091,12,4,26,13,31,,14,,gxInteger (24),RTK Integer (6),RTK Integer (6),,,0.022,0.02,0.038,0.0790681757280536,0.0217723962149713,0.0229183118052329,8,5,0,0
00:27:06.400,1426379244400000000,-18,37.400000000,37.4339377012836,-121.892169303596,9.24417972564697,-5.143,-18.6193,0.1858,0.4629,-0.8425,-10.1176,254.375459650751,-0.427426515167594,1.44952592590147,-0.1858,13,5,26,11,31,,15,,gxInteger (24),RTK Integer (6),RTK Integer (6),,,0.012,0.01,0.029,0.0790681757280536,0.0240642273954946,0.0252101429857562,8,4,0,0
00:27:07.400,1426379245400000000,-18,38.400000000,37.4338888966535,-121.892382880145,9.11011123657227,-5.5815,-19.2176,0.1,0.5041,-0.361,-9.4324,253.650381561013,-0.287452925817134,1.60806334781417,-0.1,13,5,25,14,30,,15,,gxInteger (24),RTK Integer (6),RTK Integer (6),,,0.009,0.008,0.027,0.0784952179329228,0.0183346494441863,0.019480565034448,9,5,0,0
00:27:08.400,1426379246400000000,-18,39.400000000,37.433837496239,-121.892602175765,9.0001916885376,-5.7583,-19.5398,0.2015,0.1311,0.1821,-8.941,253.53544622731,-0.55932139960671,1.15960928156527,-0.2015,13,5,29,14,34,,15,gxInteger (24),gxInteger (24),RTK Integer (6),RTK Integer (6),,,0.008,0.007,0.026,0.0773493023426611,0.0131780292880089,0.0137509870831398,8,5,0,0
00:27:09.400,1426379247400000000,-18,40.400000000,37.433785790633,-121.892823107071,8.84600162506104,-5.685,-19.561,0.1504,-0.4378,0.0385,-9.8939,253.664361731214,-0.587911993583738,1.08827603607149,-0.1504,13,5,28,13,33,,16,gxInteger (24),gxInteger (24),RTK Integer (6),RTK Integer (6),,,0.008,0.007,0.025,0.0767763445475303,0.0154698604685322,0.0166157760587939,8,5,0,0
00:27:10.400,1426379248400000000,-18,41.400000000,37.4337351341964,-121.893042647609,8.7544641494751,-5.5316,-19.2847,0.1318,-0.3851,-0.5689,-8.9124,253.850343831513,-0.495436605449623,1.81111959040853,-0.1318,12,5,27,12,31,,16,gxInteger (24),gxInteger (24),RTK Integer (6),RTK Integer (6),,,0.009,0.008,0.025,0.0767763445475303,0.0183346494441863,0.019480565034448,7,5,0,0
00:27:11.400,1426379249400000000,-18,42.400000000,37.4336860994093,-121.893258451838,8.59104442596436,-5.3678,-18.9185,0.1683,-0.3395,0.3519,-10.077,254.235657948739,-0.627560673006791,0.747709922645724,-0.1683,13,4,27,12,33,,15,gxInteger (24),gxInteger (24),RTK Integer (6),RTK Integer (6),,,0.008,0.007,0.025,0.0756304289572687,0.0200535228295788,0.0217723962149713,7,5,0,0
00:27:12.400,1426379250400000000,-18,43.400000000,37.4336391321065,-121.893472356456,8.46401023864746,-5.0936,-19.096,-0.0418,0.0799,0.187,-11.7465,255.023818691721,-0.08141730268809,0.608194699531369,0.0418,13,4,29,13,34,,16,gxInteger (24),gxInteger (24),RTK Integer (6),RTK Integer (6),,,0.008,0.007,0.026,0.0750574711621379,0.0217723962149713,0.0240642273954946,8,5,0,0
00:27:13.400,1426379251400000000,-18,44.400000000,37.4335935811458,-121.893690321908,8.31270790100098,-5.0638,-19.3467,0.1036,-0.0963,-0.3001,-10.4508,255.203097185817,-0.390126962704577,1.39738676654456,-0.1036,12,4,28,13,36,,16,gxInteger (24),gxInteger (24),RTK Integer (6),RTK Integer (6),,,0.009,0.008,0.026,0.0756304289572687,0.0223453540101021,0.025783100780887,8,5,0,0
00:27:14.400,1426379252400000000,-18,45.400000000,37.433547700565,-121.893907360316,8.18488693237305,-5.1077,-19.0533,-0.0031,-0.4172,-0.3727,-10.0243,254.846660141466,-0.279030446228711,1.14030060386936,0.0031,13,4,27,13,34,,17,gxInteger (24),gxInteger (24),RTK Integer (6),RTK Integer (6),,,0.008,0.007,0.025,0.0750574711621379,0.0234912696003638,0.0275019741662795,7,5,0,0
00:27:15.400,1426379253400000000,-18,46.400000000,37.4335014524858,-121.894120011679,8.11151123046875,-5.0866,-18.624,0.1043,-0.5524,-0.239,-10.306,254.611117191888,-0.496697112598911,1.02490690393002,-0.1043,13,5,29,13,34,,17,gxInteger (24),gxInteger (24),RTK Integer (6),RTK Integer (6),,,0.008,0.008,0.027,0.0750574711621379,0.0223453540101021,0.0280749319614103,8,5,0,0
00:27:16.400,1426379254400000000,-18,47.400000000,37.4334555462184,-121.894330305508,8.00968837738037,-5.126,-18.7281,0.1432,-0.0162,-0.2755,-9.7558,254.633691729016,-0.357353776823094,0.80506299793832,-0.1432,12,5,30,12,35,,16,gxInteger (24),gxInteger (24),RTK Integer (6),RTK Integer (6),,,0.013,0.012,0.029,0.0762033867523995,0.0234912696003638,0.0309397209370645,7,5,0,0
00:27:17.400,1426379255400000000,-18,48.400000000,37.4334092901898,-121.894541212143,7.9124059677124,-5.1191,-18.5628,0.17,-0.252,-0.172,-9.4438,254.506265915379,-0.59874089591171,0.626414757416529,-0.17,15,6,30,13,36,,16,,gxInteger (24),RTK Integer (6),RTK Integer (6),,,0.01,0.009,0.027,0.0750574711621379,0.0240642273954946,0.0320856365273261,8,5,0,0
00:27:18.400,1426379256400000000,-18,49.400000000,37.4333632905651,-121.894748939486,7.81291913986206,-5.0657,-18.1923,0.0695,-0.3937,-0.3015,-10.651,254.292953728252,-0.373453890866271,0.762091163303508,-0.0695,15,6,31,15,36,,16,,gxInteger (24),RTK Integer (6),RTK Integer (6),,,0.011,0.009,0.03,0.0750574711621379,0.0234912696003638,0.0320856365273261,9,6,0,0
00:27:19.400,1426379257400000000,-18,50.400000000,37.4333177719654,-121.894952105814,7.75002002716064,-4.9842,-17.735,0.0826,-0.5715,0.1713,-9.8612,254.304355588375,-0.455673334467544,0.504546634392203,-0.0826,14,6,32,16,36,,16,gxInteger (24),gxInteger (24),RTK Integer (6),RTK Integer (6),,,0.012,0.012,0.029,0.074484513367007,0.0229183118052329,0.0309397209370645,9,7,0,0
00:27:20.400,1426379258400000000,-18,51.400000000,37.4332748325179,-121.895146519677,7.68450021743774,-4.5759,-16.5443,0.1065,-1.4518,-0.1732,-9.4032,254.474638645088,-0.767476966577738,0.504260155494637,-0.1065,16,6,31,9,37,,18,,gxInteger (24),RTK Integer (6),RTK Integer (6),,,0.009,0.008,0.027,0.074484513367007,0.0234912696003638,0.0320856365273261,9,5,0,0
00:27:21.400,1426379259400000000,-18,52.400000000,37.4332356461171,-121.895324591972,7.61971998214722,-4.1012,-14.8748,0.153,-2.1009,-0.1697,-9.932,254.469252841814,-0.919253486507893,0.786728348494133,-0.153,15,6,30,16,36,,18,,gxInteger (24),RTK Integer (6),RTK Integer (6),,,0.014,0.013,0.03,0.0733385977767454,0.0234912696003638,0.0320856365273261,9,7,0,0
00:27:22.400,1426379260400000000,-18,53.400000000,37.4332009350543,-121.895483382326,7.53209018707275,-3.5817,-13.2632,0.0327,-1.7936,-0.3042,-8.9689,254.755789035159,-0.778363164685223,0.804203561245623,-0.0327,9,6,30,14,37,,18,gxInteger (24),gxInteger (24),RTK Integer (6),RTK Integer (6),,,0.013,0.012,0.028,0.0727656399816146,0.0234912696003638,0.0320856365273261,9,6,0,0
00:27:23.400,1426379261400000000,-18,54.400000000,37.4331709187798,-121.895622459199,7.46186447143555,-3.0588,-11.4269,0.0903,-1.9597,-0.1877,-9.8111,254.872042171791,-0.77905071403938,0.865796524222187,-0.0903,16,6,30,15,37,,18,,gxInteger (24),RTK Integer (6),RTK Integer (6),,,0.011,0.01,0.026,0.0710467665962221,0.0223453540101021,0.0315126787321953,9,6,0,0
00:27:24.400,1426379262400000000,-18,55.400000000,37.4331455014286,-121.895740828354,7.37902498245239,-2.5525,-9.5471,0.0687,-1.9982,0.0633,-9.8006,254.965892658633,-0.832622267884112,0.64446292796315,-0.0687,16,7,32,16,38,,18,,gxInteger (24),RTK Integer (6),RTK Integer (6),,,0.008,0.008,0.025,0.0704738088010913,0.0211994384198405,0.0280749319614103,9,7,0,0
00:27:25.400,1426379263400000000,-18,56.400000000,37.4331245513106,-121.895837999725,7.32646656036377,-2.0763,-7.709,-0.0106,-1.8529,-0.256,-9.8484,254.854337775921,-0.602751600477626,0.834455732828531,0.0106,16,8,31,16,37,,18,,gxInteger (24),RTK Integer (6),RTK Integer (6),,,0.008,0.008,0.025,0.0710467665962221,0.0189076072393172,0.0246371851906254,9,7,0,0
00:27:26.400,1426379264400000000,-18,57.400000000,37.4331074990853,-121.895916161403,7.31491804122925,-1.7018,-6.1959,-0.0093,-1.5699,0.0248,-9.6823,254.662568801891,-0.507640606485909,0.935067121653503,0.0093,15,8,31,15,39,,18,gxInteger (24),gxInteger (24),RTK Integer (6),RTK Integer (6),,,0.007,0.007,0.025,0.0699008510059604,0.0166157760587939,0.0206264806247096,9,7,0,0
00:27:27.400,1426379265400000000,-18,58.400000000,37.4330937597361,-121.895979541734,7.31560754776001,-1.3805,-5.0775,0.041,-1.2542,-0.132,-9.8491,254.736881427919,-0.730979555027904,1.06484206225063,-0.041,13,8,32,13,39,,18,gxInteger (24),gxInteger (24),RTK Integer (6),RTK Integer (6),,,0.009,0.008,0.028,0.0704738088010913,0.0171887338539247,0.0223453540101021,9,5,0,0
00:27:28.400,1426379266400000000,-18,59.400000000,37.433082662247,-121.896030709252,7.28262710571289,-1.0894,-3.9584,0.0305,-1.2153,-0.2057,-9.7638,254.685257930578,-0.677866367419277,1.20619075030941,-0.0305,13,8,31,13,37,,18,gxInteger (24),gxInteger (24),RTK Integer (6),RTK Integer (6),,,0.01,0.009,0.029,0.0716197243913529,0.0183346494441863,0.0246371851906254,9,5,0,0
00:27:29.400,1426379267400000000,-18,60.400000000,37.4330742280029,-121.896069414925,7.26133966445923,-0.7864,-2.8758,0.0095,-1.1889,-0.303,-9.9113,254.65563601257,-0.581953232514377,1.21346731430757,-0.0095,9,8,31,9,37,,18,gxInteger (24),gxInteger (24),RTK Integer (6),RTK Integer (6),,,0.009,0.007,0.029,0.0693278932108296,0.0189076072393172,0.0263560585760179,9,5,0,0
00:27:30.400,1426379268400000000,-18,61.400000000,37.4330684274243,-121.896095883332,7.24356317520142,-0.4981,-1.8114,0.0121,-0.9138,-0.1337,-9.775,254.647156237202,-0.522422917600285,1.17473536735673,-0.0121,9,8,31,9,37,,18,gxInteger (24),gxInteger (24),RTK Integer (6),RTK Integer (6),,,0.011,0.01,0.029,0.0693278932108296,0.019480565034448,0.0280749319614103,9,5,0,0
00:27:31.400,1426379269400000000,-18,62.400000000,37.4330651243895,-121.896110801122,7.23051309585571,-0.2467,-0.8831,-0.0005,-0.8322,-0.1819,-9.8737,254.654661984318,-0.462262349111548,1.15519750654277,0.0005,9,8,31,9,37,,18,gxInteger (24),gxInteger (24),RTK Integer (6),RTK Integer (6),,,0.011,0.011,0.028,0.0699008510059604,0.0200535228295788,0.0297938053468028,9,5,0,0
00:27:32.400,1426379270400000000,-18,63.400000000,37.4330636487376,-121.896117307694,7.22701454162598,-0.094,-0.3185,-0.0023,-0.5654,-0.2006,-9.8172,254.650364800855,-0.392991751680232,1.12632043366817,0.0023,16,8,31,16,38,,18,,gxInteger (24),RTK Integer (6),RTK Integer (6),,,0.009,0.008,0.027,0.0699008510059604,0.0206264806247096,0.0309397209370645,9,5,0,0
00:27:33.400,1426379271400000000,-18,64.400000000,37.4330633344277,-121.896118752817,7.21209144592285,0.0002,0.0207,0.0027,-0.0473,-0.2033,-9.7432,254.653573364507,-0.328247520830449,1.13674826553955,-0.0027,15,8,32,16,38,,18,,gxInteger (24),RTK Integer (6),RTK Integer (6),,,0.013,0.013,0.029,0.0693278932108296,0.0206264806247096,0.0315126787321953,9,7,0,0
00:27:34.400,1426379272400000000,-18,65.400000000,37.4330633547578,-121.896118662572,7.2096905708313,-0.0038,0.0049,-0.0029,-0.086,-0.2013,-9.8386,254.650593983973,-0.296734842098253,1.14110274478255,0.0029,13,8,31,13,37,,18,gxInteger (24),gxInteger (24),RTK Integer (6),RTK Integer (6),,,0.012,0.012,0.028,0.0699008510059604,0.0206264806247096,0.0309397209370645,8,7,0,0
00:27:35.400,1426379273400000000,-18,66.400000000,37.4330633388929,-121.89611867963,7.21820592880249,-0.0032,0.0098,-0.0035,-0.0577,-0.1965,-9.7931,254.643546603093,-0.307506448646713,1.13961305451521,0.0035,15,8,31,15,37,,18,,gxInteger (24),RTK Integer (6),RTK Integer (6),,,0.01,0.009,0.026,0.068181977620568,0.0206264806247096,0.0309397209370645,8,7,0,0
00:27:36.400,1426379274400000000,-18,67.400000000,37.4330633248623,-121.896118774708,7.22672939300537,-0.0035,0.0026,-0.0056,-0.0623,-0.1991,-9.8025,254.646468687848,-0.327731858814831,1.15187435133101,0.0056,15,8,31,14,37,,18,,gxInteger (24),RTK Integer (6),RTK Integer (6),,,0.008,0.007,0.026,0.068181977620568,0.0206264806247096,0.0303667631419336,8,7,0,0
00:27:37.400,1426379275400000000,-18,68.400000000,37.4330632925106,-121.896118819281,7.22982931137085,-0.004,-0.0011,-0.007,-0.0337,-0.1939,-9.7968,254.652885815153,-0.326585943224569,1.15548398544033,0.007,16,8,32,16,38,,18,,gxInteger (24),RTK Integer (6),RTK Integer (6),,,0.012,0.012,0.027,0.0687549354156988,0.0206264806247096,0.0297938053468028,9,7,0,0
00:27:38.400,1426379276400000000,-18,69.400000000,37.4330633326289,-121.896118850443,7.23456144332886,-0.0024,-0.0049,-0.0081,-0.0503,-0.1979,-9.8018,254.647843786556,-0.316329998691727,1.14700421007239,0.0081,13,8,32,13,38,,19,gxInteger (24),gxInteger (24),RTK Integer (6),RTK Integer (6),,,0.009,0.008,0.026,0.0687549354156988,0.0206264806247096,0.0309397209370645,8,6,0,0
00:27:39.400,1426379277400000000,-18,70.400000000,37.433063407593,-121.896118801448,7.24214839935303,-0.001,-0.0053,-0.007,-0.0708,-0.1929,-9.7707,254.64618220895,-0.319825041242025,1.15107221041782,0.007,16,8,32,16,38,,19,,gxInteger (24),RTK Integer (6),RTK Integer (6),,,0.008,0.007,0.026,0.068181977620568,0.0206264806247096,0.0303667631419336,9,7,0,0
00:27:40.400,1426379278400000000,-18,71.400000000,37.4330633021358,-121.896118971535,7.25189161300659,-0.0017,-0.0058,-0.0048,-0.0478,-0.1984,-9.7576,254.645380068037,-0.31117337853555,1.15714556304621,0.0048,13,8,32,16,38,,19,gxInteger (24),gxInteger (24),RTK Integer (6),RTK Integer (6),,,0.012,0.012,0.027,0.0687549354156988,0.0206264806247096,0.0297938053468028,9,7,0,0
00:27:41.400,1426379279400000000,-18,72.400000000,37.4330633072918,-121.896118893961,7.24284839630127,0,-0.003,-0.0012,-0.0676,-0.1974,-9.8027,254.643603898872,-0.313006843479969,1.14751987208801,0.0012,8,8,32,13,38,,19,gxInteger (24),gxInteger (24),RTK Integer (6),RTK Integer (6),,,0.01,0.009,0.026,0.0676090198254371,0.0206264806247096,0.0309397209370645,8,6,0,0
00:27:42.400,1426379280400000000,-18,73.400000000,37.4330633248657,-121.896118772742,7.2327356338501,0.0031,0.0023,0.0028,-0.0465,-0.1887,-9.7963,254.646296800509,-0.320913661052774,1.15743204194378,-0.0028,15,9,31,16,38,,19,,gxInteger (24),RTK Integer (6),RTK Integer (6),,,0.008,0.007,0.025,0.0676090198254371,0.0206264806247096,0.0303667631419336,9,7,0,0
00:27:43.400,1426379281400000000,-18,74.400000000,37.4330633476163,-121.896118759876,7.22434759140015,0.0047,0.004,0.0058,-0.0494,-0.191,-9.7623,254.633634433237,-0.313980871731691,1.15559857699936,-0.0058,15,8,31,15,37,,19,,gxInteger (24),RTK Integer (6),RTK Integer (6),,,0.013,0.012,0.028,0.068181977620568,0.0206264806247096,0.0297938053468028,8,7,0,0
00:27:44.400,1426379282400000000,-18,75.400000000,37.4330633133528,-121.89611876397,7.21936988830566,0.0035,0.0019,0.0071,-0.0745,-0.1875,-9.8205,254.625613024105,-0.310485829181393,1.1439675337582,-0.0071,13,9,31,13,37,,19,gxInteger (24),gxInteger (24),RTK Integer (6),RTK Integer (6),,,0.01,0.01,0.026,0.068181977620568,0.0206264806247096,0.0309397209370645,7,6,0,0
00:27:45.400,1426379283400000000,-18,76.400000000,37.4330632804949,-121.896118773631,7.21874284744263,0.0025,-0.0012,0.0052,-0.0479,-0.1853,-9.794,254.629509137112,-0.314840308424387,1.14368105486064,-0.0052,15,9,31,15,37,,19,,gxInteger (24),RTK Integer (6),RTK Integer (6),,,0.008,0.007,0.025,0.068181977620568,0.0206264806247096,0.0303667631419336,8,7,0,0
00:27:46.400,1426379284400000000,-18,77.400000000,37.4330632906601,-121.896118871586,7.2143759727478,0.0034,-0.0017,0.0036,-0.0609,-0.194,-9.7907,254.635296010843,-0.310657716519932,1.15027006950464,-0.0036,15,8,31,15,37,,19,,gxInteger (24),RTK Integer (6),RTK Integer (6),,,0.01,0.009,0.027,0.068181977620568,0.0200535228295788,0.0280749319614103,8,7,0,0
00:27:47.400,1426379285400000000,-18,78.400000000,37.4330632803686,-121.896118970391,7.20311594009399,0.002,-0.0033,0.0008,-0.0532,-0.1916,-9.7975,254.645093589139,-0.321715801965957,1.14144651945963,-0.0008,13,8,31,13,37,,19,gxInteger (24),gxInteger (24),RTK Integer (6),RTK Integer (6),,,0.012,0.011,0.028,0.0670360620303063,0.0200535228295788,0.0297938053468028,7,6,0,0
00:27:48.400,1426379286400000000,-18,79.400000000,37.43306328128,-121.896118945165,7.20362949371338,0.0039,-0.0022,0,-0.0607,-0.1985,-9.7974,254.665834661323,-0.334378169238348,1.13944116717667,0,15,8,31,13,37,,19,,gxInteger (24),RTK Integer (6),RTK Integer (6),,,0.01,0.009,0.027,0.0676090198254371,0.0206264806247096,0.0315126787321953,7,6,0,0
00:27:49.400,1426379287400000000,-18,80.400000000,37.4330633238175,-121.896118921,7.20752620697021,0.0016,-0.0018,-0.0022,-0.0569,-0.1914,-9.805,254.671105873038,-0.325497323413821,1.13319592720974,0.0022,15,9,31,15,37,,19,,gxInteger (24),RTK Integer (6),RTK Integer (6),,,0.013,0.013,0.029,0.0693278932108296,0.0206264806247096,0.0315126787321953,8,7,0,0
00:27:50.400,1426379288400000000,-18,81.400000000,37.4330634167595,-121.896118814319,7.20065116882324,0.0018,-0.0019,-0.0008,-0.0475,-0.1969,-9.7895,254.675345760722,-0.321715801965957,1.14608747760019,0.0008,12,9,31,14,37,,19,gxInteger (24),gxInteger (24),RTK Integer (6),RTK Integer (6),,,0.011,0.011,0.027,0.0687549354156988,0.0200535228295788,0.0286478897565412,8,7,0,0
00:27:51.400,1426379289400000000,-18,82.400000000,37.4330635603889,-121.896118692733,7.20013952255249,0.0009,-0.0018,0.0005,-0.0625,-0.1976,-9.8007,254.684283902326,-0.310944195417498,1.13858173048397,-0.0005,15,9,30,13,37,,20,,gxInteger (24),RTK Integer (6),RTK Integer (6),,,0.009,0.008,0.026,0.0687549354156988,0.0200535228295788,0.0297938053468028,7,6,0,0
00:27:52.400,1426379290400000000,-18,83.400000000,37.4330635989006,-121.896118749166,7.18737697601318,-0.0408,-0.1387,0.0373,0.7969,-0.1913,-9.9846,254.687205987081,-0.128285250329791,1.14608747760019,-0.0373,16,9,32,16,38,,20,,gxInteger (24),RTK Integer (6),RTK Integer (6),,,0.009,0.008,0.026,0.0687549354156988,0.0189076072393172,0.0269290163711487,9,6,0,0
00:27:53.400,1426379291400000000,-18,84.400000000,37.4330619187408,-121.896126250003,7.16829204559326,-0.3177,-1.1452,0.0046,0.8827,-0.239,-9.7426,254.674543619809,-0.0707602876986567,1.15834877441599,-0.0046,7,9,32,16,38,,20,gxInteger (24),gxInteger (24),RTK Integer (6),RTK Integer (6),,,0.008,0.007,0.025,0.0670360620303063,0.0171887338539247,0.0223453540101021,9,7,0,0
00:27:54.400,1426379292400000000,-18,85.400000000,37.4330580858914,-121.896143935091,7.15711450576782,-0.6258,-2.2467,0.0108,2.0603,-0.196,-9.8799,254.666865985354,0.222078441392707,1.12448696872375,-0.0108,13,9,31,7,37,,20,gxInteger (24),gxInteger (24),RTK Integer (6),RTK Integer (6),,,0.008,0.007,0.025,0.0676090198254371,0.0177616916490555,0.0246371851906254,7,6,0,0
00:27:55.400,1426379293400000000,-18,86.400000000,37.4330501819438,-121.896179780101,7.15028524398804,-1.1086,-3.949,0.0277,1.4815,-0.1163,-9.9443,254.617477023414,0.214801877394546,1.13359699766633,-0.0277,13,9,30,13,38,,20,gxInteger (24),gxInteger (24),RTK Integer (6),RTK Integer (6),,,0.009,0.008,0.026,0.0699008510059604,0.0189076072393172,0.0263560585760179,7,6,0,0
00:27:56.400,1426379294400000000,-18,87.400000000,37.4330382304609,-121.896233821282,7.13052654266357,-1.5944,-5.7346,0.0103,2.1355,-0.1445,-9.5301,254.682966099398,0.47847705471375,1.1934710872575,-0.0103,13,9,32,13,38,,20,gxInteger (24),gxInteger (24),RTK Integer (6),RTK Integer (6),,,0.009,0.008,0.027,0.0699008510059604,0.019480565034448,0.0280749319614103,7,6,0,0
00:27:57.400,1426379295400000000,-18,88.400000000,37.4330213043537,-121.896311060142,7.10725831985474,-2.1679,-7.9055,0.0065,1.9717,-0.1675,-9.9051,254.738829484423,0.429661050568604,1.02467772081196,-0.0065,14,9,32,14,38,,20,gxInteger (24),gxInteger (24),RTK Integer (6),RTK Integer (6),,,0.012,0.011,0.027,0.0699008510059604,0.0200535228295788,0.0297938053468028,8,6,0,0
00:27:58.400,1426379296400000000,-18,89.400000000,37.4329995110098,-121.896410138026,7.08105850219727,-2.6914,-9.7476,0.0652,2.1722,0.1583,-9.4721,254.674658211368,0.349905325486394,0.577885232168948,-0.0652,15,9,29,15,37,,20,,gxInteger (24),RTK Integer (6),RTK Integer (6),,,0.009,0.008,0.025,0.0710467665962221,0.0200535228295788,0.0309397209370645,7,6,0,0
00:27:59.400,1426379297400000000,-18,90.400000000,37.4329736598578,-121.896527815545,7.05854797363281,-2.9622,-10.7656,0.0415,0.418,-0.5593,-9.9781,254.685086043239,-0.158250943015133,0.795666490098174,-0.0415,14,9,28,14,35,,20,,gxInteger (24),RTK Integer (6),RTK Integer (6),,,0.008,0.007,0.027,0.0704738088010913,0.0189076072393172,0.0309397209370645,8,6,0,0
00:28:00.400,1426379298400000000,-18,91.400000000,37.432946608581,-121.896651629677,6.9893684387207,-3.0544,-11.1331,0.0859,0.4183,-0.3004,-9.9865,254.71682790509,-0.218526103062896,0.872786609322783,-0.0859,14,8,30,14,37,,20,gxInteger (24),gxInteger (24),RTK Integer (6),RTK Integer (6),,,0.013,0.012,0.034,0.0699008510059604,0.0189076072393172,0.0297938053468028,9,6,0,0
00:28:01.400,1426379299400000000,-18,92.400000000,37.4329188119297,-121.89677859224,6.91887187957764,-3.0989,-11.3372,0.1652,-0.1264,-0.3834,-11.1946,254.767935740415,-0.41230042937614,1.16241677476141,-0.1652,7,8,30,14,36,,20,gxInteger (24),gxInteger (24),RTK Integer (6),RTK Integer (6),,,0.014,0.013,0.035,0.0716197243913529,0.0189076072393172,0.0315126787321953,9,5,0,0
00:28:02.400,1426379300400000000,-18,93.400000000,37.4328908054407,-121.896907095328,6.894606590271,-3.121,-11.4216,-0.0104,-0.0617,-0.3406,-10.7699,254.864078058438,-0.0823340351602993,1.49639387354317,0.0104,11,8,30,11,37,,20,gxFloat (23),gxInteger (24),RTK Integer (6),RTK Integer (6),,,0.013,0.012,0.034,0.0716197243913529,0.0189076072393172,0.0315126787321953,8,4,0,0
00:28:03.400,1426379301400000000,-18,94.400000000,37.4328624902533,-121.897036681339,6.83903503417969,-3.2004,-11.5214,0.0948,-0.0124,-0.4528,-10.0076,254.637129475787,-0.419233218697223,1.25185548658134,-0.0948,15,8,30,15,37,,20,,gxInteger (24),RTK Integer (6),RTK Integer (6),,,0.014,0.014,0.033,0.0721926821864837,0.029220847551672,0.0378152144786343,9,6,0,0
00:28:04.400,1426379302400000000,-18,95.400000000,37.43283298536,-121.897169417867,6.77937698364258,-3.4024,-12.1934,0.0299,1.3039,-0.0977,-9.4757,254.548836679557,0.139457927334842,1.11795524985926,-0.0299,15,8,29,15,35,,20,,gxInteger (24),RTK Integer (6),RTK Integer (6),,,0.018,0.017,0.034,0.0721926821864837,0.0269290163711487,0.0332315521175878,9,7,0,0
00:28:05.400,1426379303400000000,-18,96.400000000,37.4328010687689,-121.897312651921,6.74644756317139,-3.6076,-13.0302,0.0819,0.0108,-0.0496,-9.6785,254.675173873384,-0.0595876106936056,1.32548056325565,-0.0819,13,8,28,13,36,,20,gxInteger (24),gxInteger (24),RTK Integer (6),RTK Integer (6),,,0.017,0.016,0.032,0.0727656399816146,0.0320856365273261,0.0372422566835035,8,5,0,0
00:28:06.400,1426379304400000000,-18,97.400000000,37.4327686680112,-121.89746022629,6.72312545776367,-3.615,-13.1009,0.0961,-0.2308,0.0326,-9.4757,254.89329890599,-0.447594629556199,1.83478274734743,-0.0961,13,6,27,10,35,,20,,gxInteger (24),RTK Integer (6),RTK Integer (6),,,0.014,0.012,0.03,0.0727656399816146,0.0332315521175878,0.038961130068896,7,5,0,0
00:28:07.400,1426379305400000000,-18,98.400000000,37.4327365210695,-121.897609001925,6.607825756073,-3.5625,-13.2187,0.0369,-0.0357,-0.0454,-11.0353,255.109303994754,-0.216578046559451,1.8976935132528,-0.0369,13,5,25,15,34,,17,,gxInteger (24),RTK Integer (6),RTK Integer (6),,,0.01,0.008,0.027,0.0727656399816146,0.0280749319614103,0.0338045099127186,9,6,0,0
00:28:08.400,1426379306400000000,-18,99.400000000,37.4327043134417,-121.897758067826,6.59825277328491,-3.5956,-13.1121,-0.0261,-0.0157,-0.7472,-9.647,254.790796756441,-0.161516802447379,2.16738474742088,0.0261,14,4,27,14,36,,16,,gxInteger (24),RTK Integer (6),RTK Integer (6),,,0.008,0.008,0.026,0.0716197243913529,0.0240642273954946,0.0280749319614103,8,5,0,0
00:28:09.400,1426379307400000000,-18,100.400000000,37.4326720460175,-121.897904699457,6.55716228485107,-3.5093,-12.8003,-0.0259,-0.1664,-0.5904,-9.5708,254.815147462734,-0.149255505631579,2.06310642870707,0.0259,11,4,27,11,34,,16,gxInteger (24),gxInteger (24),RTK Integer (6),RTK Integer (6),,,0.009,0.007,0.027,0.0721926821864837,0.0246371851906254,0.0297938053468028,7,4,0,0
00:28:10.400,1426379308400000000,-18,101.400000000,37.4326406869195,-121.898047007529,6.54966974258423,-3.4263,-12.3926,0.0362,-0.6548,-0.0869,-8.8891,254.66973077433,-0.281093094291182,2.04259453964138,-0.0362,11,4,25,11,31,,16,gxInteger (24),gxInteger (24),RTK Integer (6),RTK Integer (6),,,0.01,0.008,0.029,0.0727656399816146,0.0263560585760179,0.0326585943224569,7,4,0,0
00:28:11.400,1426379309400000000,-18,102.400000000,37.4326104201782,-121.898183194829,6.54339504241943,-3.2601,-11.723,0.019,-0.6511,-0.0705,-9.7966,254.563905469569,-0.313637097054613,1.60405264324825,-0.019,12,4,25,12,31,,16,gxInteger (24),gxInteger (24),RTK Integer (6),RTK Integer (6),,,0.014,0.013,0.032,0.0721926821864837,0.0240642273954946,0.0338045099127186,7,5,0,0
00:28:12.400,1426379310400000000,-18,103.400000000,37.4325822884679,-121.89830884223,6.50985336303711,-2.8888,-10.2712,0.0589,-2.1325,0.0245,-9.7004,254.559665581885,-0.974543913738017,1.58371264152111,-0.0589,11,6,25,11,32,,16,gxInteger (24),gxInteger (24),RTK Integer (6),RTK Integer (6),,,0.013,0.011,0.031,0.0721926821864837,0.0246371851906254,0.035523383298111,7,5,0,0
00:28:13.400,1426379311400000000,-18,104.400000000,37.4325589549664,-121.898413735676,6.47876596450806,-2.3021,-8.3513,0.0535,-2.019,0.1955,-9.6984,254.888657947849,-0.858118889767434,1.3738954969442,-0.0535,14,6,26,14,33,,16,,gxInteger (24),RTK Integer (6),RTK Integer (6),,,0.01,0.008,0.029,0.0727656399816146,0.0183346494441863,0.0297938053468028,8,6,0,0
00:28:14.400,1426379312400000000,-18,105.400000000,37.4325404821857,-121.898500033963,6.44836282730103,-1.8662,-7.0749,0.0443,-1.1653,-0.2227,-10.2644,255.476856420331,-0.557545230441804,1.58096244410448,-0.0443,14,6,27,15,33,,17,,gxInteger (24),RTK Integer (6),RTK Integer (6),,,0.009,0.008,0.03,0.0716197243913529,0.0171887338539247,0.0263560585760179,9,6,0,0
00:28:15.400,1426379313400000000,-18,106.400000000,37.4325250792011,-121.898574756148,6.45067167282104,-1.5752,-6.1867,0.0339,-0.8195,-0.3071,-9.6819,256.022025762398,-0.450001052295748,1.81066122417243,-0.0339,11,6,26,11,33,,16,gxInteger (24),gxInteger (24),RTK Integer (6),RTK Integer (6),,,0.013,0.012,0.034,0.0721926821864837,0.0177616916490555,0.0280749319614103,6,5,0,0
00:28:16.400,1426379314400000000,-18,107.400000000,37.432511916664,-121.898642314311,6.44982862472534,-1.3389,-5.9217,0.0519,-0.1838,-0.0998,-10.0682,257.493954338089,-0.283900587487323,1.91138720455643,-0.0519,6,6,26,6,32,,16,gxInteger (24),gxInteger (24),RTK Integer (6),RTK Integer (6),,,0.014,0.012,0.033,0.0721926821864837,0.0177616916490555,0.0297938053468028,6,5,0,0
00:28:17.400,1426379315400000000,-18,108.400000000,37.4325005678235,-121.898707599297,6.43988561630249,-1.1514,-5.5522,0.0453,-0.7412,-0.2428,-9.3952,258.613284686656,-0.386689215933793,1.89133368172685,-0.0453,13,6,26,6,32,,16,,gxInteger (24),RTK Integer (6),RTK Integer (6),,,0.011,0.01,0.031,0.0710467665962221,0.0183346494441863,0.0309397209370645,6,3,0,0
00:28:18.400,1426379316400000000,-18,109.400000000,37.4324911490758,-121.898766014911,6.43046951293945,-0.9003,-4.7278,0.0341,-1.0783,-0.2609,-9.4978,259.449860363327,-0.564019653526782,2.05926761147969,-0.0341,15,6,28,15,33,,16,,gxInteger (24),RTK Integer (6),RTK Integer (6),,,0.01,0.008,0.031,0.0704738088010913,0.0177616916490555,0.029220847551672,9,6,0,0
00:28:19.400,1426379317400000000,-18,110.400000000,37.4324840566414,-121.898814478487,6.38791990280151,-0.6933,-3.8589,0.0026,-1.0327,-0.3315,-9.4009,260.135805435658,-0.671850310570403,2.11421426403274,-0.0026,7,6,28,15,34,,16,gxInteger (24),gxInteger (24),RTK Integer (6),RTK Integer (6),,,0.011,0.009,0.032,0.0704738088010913,0.0171887338539247,0.0263560585760179,9,6,0,0
00:28:20.400,1426379318400000000,-18,111.400000000,37.4324787670211,-121.898853027934,6.32568407058716,-0.4728,-2.8749,-0.0091,-1.3972,-0.2281,-9.9843,260.682120693315,-0.661766253376101,2.1543213096919,0.0091,7,6,28,8,35,,17,,gxInteger (24),RTK Integer (6),RTK Integer (6),,,0.011,0.009,0.032,0.0699008510059604,0.0177616916490555,0.0275019741662795,7,6,0,0
00:28:21.400,1426379319400000000,-18,112.400000000,37.4324754292443,-121.89887828831,6.2938380241394,-0.2608,-1.6145,0.0064,-1.2719,-0.2368,-9.9486,261.06038742966,-0.660276563108761,2.23923365493028,-0.0064,7,6,28,7,35,,18,,gxInteger (24),RTK Integer (6),RTK Integer (6),,,0.016,0.014,0.032,0.0699008510059604,0.0275019741662795,0.0349504255029802,7,6,0,0
00:28:22.400,1426379320400000000,-18,113.400000000,37.4324741284078,-121.898889322501,6.29789972305298,-0.0784,-0.4445,0.0101,-1.0197,-0.3826,-9.8151,261.221846936328,-0.615127488852452,2.31028042152651,-0.0101,15,7,28,7,34,,18,,gxInteger (24),RTK Integer (6),RTK Integer (6),,,0.016,0.015,0.031,0.0704738088010913,0.0286478897565412,0.0372422566835035,7,6,0,0
00:28:23.400,1426379321400000000,-18,114.400000000,37.4324740550134,-121.898890628478,6.30268621444702,-0.0076,-0.0025,-0.0193,-0.3023,-0.379,-9.8167,261.250494826085,-0.37511546847215,2.31297332316362,0.0193,15,7,28,15,34,,18,,gxInteger (24),RTK Integer (6),RTK Integer (6),,,0.012,0.011,0.03,0.0699008510059604,0.0332315521175878,0.0383881722737652,9,6,0,0
00:28:24.400,1426379322400000000,-18,115.400000000,37.432473995331,-121.89889081336,6.30450057983398,-0.0079,0.0025,-0.0096,0.0186,-0.3931,-9.8239,261.2557660378,-0.412013950478575,2.31870290111493,0.0096,14,7,30,14,35,,18,,gxInteger (24),RTK Integer (6),RTK Integer (6),,,0.009,0.008,0.028,0.0699008510059604,0.0320856365273261,0.0372422566835035,8,6,0,0
00:28:25.400,1426379323400000000,-18,116.400000000,37.4324737513208,-121.898891654876,6.33751916885376,-0.0437,-0.274,-0.0195,0.4643,-0.3438,-9.799,261.275132011275,-0.255940247084939,2.30386329422104,0.0195,7,8,30,14,35,,19,,gxInteger (24),RTK Integer (6),RTK Integer (6),,,0.011,0.009,0.032,0.0704738088010913,0.0309397209370645,0.0338045099127186,8,6,0,0
00:28:26.400,1426379324400000000,-18,117.400000000,37.4324730447607,-121.898897336254,6.41487550735474,-0.1076,-0.7204,-0.0072,0.3444,-0.3424,-9.7602,261.285559843147,-0.273759234513507,2.26198007939698,0.0072,12,9,31,12,36,,19,,gxInteger (24),RTK Integer (6),RTK Integer (6),,,0.021,0.02,0.04,0.0699008510059604,0.0332315521175878,0.0366692988883727,7,6,0,0
00:28:27.400,1426379325400000000,-18,118.400000000,37.4324720121744,-121.898905655266,6.41764640808105,-0.1027,-0.7071,-0.0046,-0.2888,-0.366,-9.796,261.41229810743,-0.339133718937934,2.25825585372863,0.0046,12,9,28,12,34,,19,gxInteger (24),gxInteger (24),RTK Integer (6),RTK Integer (6),,,0.021,0.02,0.039,0.0693278932108296,0.0343774677078494,0.0395340878640268,6,6,0,0
00:28:28.400,1426379326400000000,-18,119.400000000,37.4324711369604,-121.898912116797,6.35540676116943,-0.0505,-0.332,0.0097,-0.494,-0.347,-9.749,261.387317147562,-0.357754847279686,2.21963849833681,-0.0097,14,9,31,14,36,,19,,gxInteger (24),RTK Integer (6),RTK Integer (6),,,0.015,0.014,0.036,0.0693278932108296,0.0343774677078494,0.0395340878640268,7,6,0,0
00:28:29.400,1426379327400000000,-18,120.400000000,37.4324708902828,-121.898913863799,6.31751728057861,-0.0025,-0.0006,0.0114,-0.1867,-0.3396,-9.7838,261.370701371503,-0.335753267946662,2.1893863267539,-0.0114,14,9,30,14,36,,19,,gxInteger (24),RTK Integer (6),RTK Integer (6),,,0.012,0.012,0.033,0.0670360620303063,0.0326585943224569,0.038961130068896,8,6,0,0
00:28:30.400,1426379328400000000,-18,121.400000000,37.4324708456206,-121.898913855981,6.31834506988525,-0.0144,-0.0882,0.0165,0.457,-0.3618,-9.8118,261.366919850055,-0.218526103062896,2.19305325664274,-0.0165,14,8,30,14,37,,19,,gxInteger (24),RTK Integer (6),RTK Integer (6),,,0.012,0.011,0.032,0.0670360620303063,0.0326585943224569,0.038961130068896,8,6,0,0
00:28:31.400,1426379329400000000,-18,122.400000000,37.432470430223,-121.89891679494,6.32828855514526,-0.0543,-0.3606,-0.0004,-0.2334,-0.3635,-9.8031,261.357695229554,-0.282468192999496,2.13220513879985,0.0004,15,8,30,15,38,,19,,gxInteger (24),RTK Integer (6),RTK Integer (6),,,0.011,0.009,0.032,0.0676090198254371,0.0297938053468028,0.0372422566835035,9,6,0,0
00:28:32.400,1426379330400000000,-18,123.400000000,37.4324701696385,-121.898918771137,6.32218360900879,-0.0055,-0.009,-0.0018,-0.3355,-0.3774,-9.833,261.355861764609,-0.317189435384424,2.12636096928951,0.0018,15,8,31,15,38,,19,,gxInteger (24),RTK Integer (6),RTK Integer (6),,,0.011,0.008,0.035,0.0664631042351755,0.0275019741662795,0.0332315521175878,9,6,0,0
00:28:33.400,1426379331400000000,-18,124.400000000,37.4324699114109,-121.89891897677,6.33925628662109,-0.0098,0.0022,-0.0078,-0.0618,-0.3495,-9.8194,261.356090947727,-0.263388698421639,2.11914170107086,0.0078,8,8,31,8,38,,19,gxInteger (24),gxInteger (24),RTK Integer (6),RTK Integer (6),,,0.015,0.015,0.038,0.0658901464400447,0.025783100780887,0.0343774677078494,8,6,0,0
00:28:34.400,1426379332400000000,-18,125.400000000,37.4324698664124,-121.898918782372,6.34189939498901,-0.0076,0.0071,-0.0051,-0.0651,-0.3504,-9.8703,261.360560018529,-0.238178555435883,2.10510423509016,0.0051,15,8,31,8,37,,20,,gxInteger (24),RTK Integer (6),RTK Integer (6),,,0.015,0.015,0.038,0.0664631042351755,0.0263560585760179,0.0366692988883727,8,6,0,0
00:28:35.400,1426379333400000000,-18,126.400000000,37.4324699380382,-121.898918645757,6.3240966796875,-0.0025,0.0089,0.0015,-0.0499,-0.3466,-9.7871,261.361705934119,-0.232105202807496,2.09186891002264,-0.0015,15,7,31,15,38,,20,,gxInteger (24),RTK Integer (6),RTK Integer (6),,,0.014,0.013,0.038,0.064744230849783,0.0211994384198405,0.0332315521175878,9,6,0,0
00:28:36.400,1426379334400000000,-18,127.400000000,37.4324700329815,-121.898918645496,6.30001544952393,0.0025,0.0076,0.0066,-0.0863,-0.3474,-9.832,261.362107004576,-0.231016582996748,2.07141431673646,-0.0066,15,8,31,15,37,,20,,gxInteger (24),RTK Integer (6),RTK Integer (6),,,0.015,0.015,0.039,0.064744230849783,0.0211994384198405,0.0332315521175878,9,6,0,0
00:28:37.400,1426379335400000000,-18,128.400000000,37.4324700943276,-121.898918789278,6.2902660369873,0.0049,0.0006,0.0049,-0.0233,-0.3411,-9.7535,261.366117709142,-0.242074668442773,2.07164349985452,-0.0049,15,8,31,15,37,,20,,gxInteger (24),RTK Integer (6),RTK Integer (6),,,0.015,0.015,0.038,0.0658901464400447,0.0183346494441863,0.0309397209370645,9,6,0,0
00:28:38.400,1426379336400000000,-18,129.400000000,37.4324701416069,-121.898918938351,6.28841686248779,0.0047,-0.0043,0.0058,-0.0085,-0.3502,-9.739,261.373852639376,-0.260924979902577,2.0807535287971,-0.0058,16,8,32,16,38,,20,,gxInteger (24),RTK Integer (6),RTK Integer (6),,,0.013,0.013,0.037,0.0653171886449139,0.0183346494441863,0.0309397209370645,9,6,0,0
00:28:39.400,1426379337400000000,-18,130.400000000,37.4324701650594,-121.898918978303,6.28685283660889,0.0042,-0.0051,0.0033,-0.0866,-0.3514,-9.8596,261.362450779253,-0.25336193700685,2.07479476772774,-0.0033,16,8,32,16,38,,20,,gxInteger (24),RTK Integer (6),RTK Integer (6),,,0.014,0.014,0.037,0.0653171886449139,0.0183346494441863,0.0303667631419336,9,7,0,0
00:28:40.400,1426379338400000000,-18,131.400000000,37.4324701545166,-121.898918993238,6.28783321380615,0.002,-0.0037,0.0013,-0.0584,-0.3482,-9.801,261.356377426625,-0.247116697039924,2.07324778168088,-0.0013,16,9,32,16,38,,20,,gxInteger (24),RTK Integer (6),RTK Integer (6),,,0.014,0.014,0.037,0.0658901464400447,0.0183346494441863,0.0303667631419336,9,7,0,0
00:28:41.400,1426379339400000000,-18,132.400000000,37.4324701288022,-121.898919018346,6.29029560089111,0.0002,-0.0044,0.0006,-0.0163,-0.3623,-9.7991,261.349043566847,-0.242074668442773,2.07118513361841,-0.0006,15,9,32,16,38,,20,,gxInteger (24),RTK Integer (6),RTK Integer (6),,,0.013,0.012,0.037,0.0641712730546522,0.0177616916490555,0.0303667631419336,9,7,0,0
00:28:42.400,1426379340400000000,-18,133.400000000,37.4324701001933,-121.898919012793,6.29217004776001,-0.0015,-0.0027,0.0004,-0.0917,-0.3431,-9.8267,261.335693650221,-0.23216249858701,2.06207510467583,-0.0004,15,9,31,15,37,,20,,gxInteger (24),RTK Integer (6),RTK Integer (6),,,0.014,0.013,0.037,0.0641712730546522,0.0177616916490555,0.0303667631419336,9,6,0,0
00:28:43.400,1426379341400000000,-18,134.400000000,37.4324701092882,-121.898918987466,6.29419946670532,-0.0013,-0.0008,-0.0001,0.0133,-0.3522,-9.7589,261.323890719641,-0.242647626237904,2.06975273913059,0.0001,15,9,31,15,37,,20,,gxInteger (24),RTK Integer (6),RTK Integer (6),,,0.014,0.013,0.037,0.0658901464400447,0.0177616916490555,0.0303667631419336,9,6,0,0
00:28:44.400,1426379342400000000,-18,135.400000000,37.4324701225568,-121.898918997869,6.29818534851074,-0.0003,-0.0004,-0.0008,-0.0354,-0.3665,-9.7807,261.311113760809,-0.252903570770745,2.07215916187014,0.0008,15,9,31,15,37,,21,,gxInteger (24),RTK Integer (6),RTK Integer (6),,,0.013,0.012,0.037,0.0653171886449139,0.0177616916490555,0.0303667631419336,9,6,0,0
00:28:45.400,1426379343400000000,-18,136.400000000,37.4324700767347,-121.898918971605,6.30277442932129,-0.0029,-0.0002,-0.0021,-0.0769,-0.3474,-9.8545,261.297076294829,-0.246085373008689,2.07015380958718,0.0021,15,9,31,15,37,,21,,gxInteger (24),RTK Integer (6),RTK Integer (6),,,0.014,0.014,0.037,0.0653171886449139,0.0177616916490555,0.0303667631419336,9,6,0,0
00:28:46.400,1426379344400000000,-18,137.400000000,37.4324700461608,-121.898918982088,6.30885696411133,-0.0034,-0.0003,-0.003,-0.0339,-0.3404,-9.8072,261.292950998704,-0.249866894456552,2.07313319012186,0.003,15,9,31,15,37,,21,,gxInteger (24),RTK Integer (6),RTK Integer (6),,,0.014,0.014,0.036,0.0658901464400447,0.0177616916490555,0.0303667631419336,9,6,0,0
00:28:47.400,1426379345400000000,-18,138.400000000,37.4324700309838,-121.89891900447,6.30787038803101,-0.0037,-0.0015,-0.0016,0.0058,-0.3647,-9.7558,261.293695843837,-0.234798104444611,2.0702684011462,0.0016,15,9,31,15,37,,21,,gxInteger (24),RTK Integer (6),RTK Integer (6),,,0.013,0.013,0.036,0.0641712730546522,0.0177616916490555,0.0303667631419336,9,6,0,0
00:28:48.400,1426379346400000000,-18,139.400000000,37.4324700269905,-121.898918994645,6.30761241912842,-0.0027,0.0001,-0.0003,-0.0549,-0.3631,-9.7479,261.289054885697,-0.23050092098113,2.06579933034418,0.0003,15,9,31,15,37,,21,,gxInteger (24),RTK Integer (6),RTK Integer (6),,,0.014,0.014,0.037,0.064744230849783,0.0177616916490555,0.0303667631419336,9,6,0,0
00:28:49.400,1426379347400000000,-18,140.400000000,37.4324700243393,-121.89891895003,6.31160306930542,-0.0021,0.0011,-0.0018,-0.0853,-0.36,-9.8119,261.289455956153,-0.243621654489626,2.07387803525553,0.0018,15,9,31,15,37,,21,,gxInteger (24),RTK Integer (6),RTK Integer (6),,,0.014,0.014,0.037,0.0658901464400447,0.0177616916490555,0.0303667631419336,9,6,0,0
00:28:50.400,1426379348400000000,-18,141.400000000,37.4324700454314,-121.898918939891,6.31296730041504,-0.0007,0.0021,-0.0015,-0.0989,-0.3384,-9.7934,261.279658377857,-0.249122049322882,2.07284671122429,0.0015,15,9,31,15,37,,21,,gxInteger (24),RTK Integer (6),RTK Integer (6),,,0.013,0.013,0.036,0.0653171886449139,0.0177616916490555,0.0303667631419336,9,6,0,0
00:28:51.400,1426379349400000000,-18,142.400000000,37.4324700116777,-121.898918888568,6.31864261627197,-0.0015,0.0025,-0.0029,-0.0915,-0.3297,-9.8289,261.267110602143,-0.250554443810709,2.07273211966527,0.0029,15,9,31,15,38,,22,,gxInteger (24),RTK Integer (6),RTK Integer (6),,,0.015,0.015,0.036,0.0658901464400447,0.0177616916490555,0.0303667631419336,9,6,0,0
00:28:52.400,1426379350400000000,-18,143.400000000,37.4324699678596,-121.898918829636,6.3264741897583,-0.002,0.0037,-0.0035,-0.0928,-0.3334,-9.8414,261.260922657956,-0.250325260692657,2.07296130278332,0.0035,15,9,31,15,38,,23,,gxInteger (24),RTK Integer (6),RTK Integer (6),,,0.015,0.015,0.036,0.0664631042351755,0.0177616916490555,0.0303667631419336,9,6,0,0
00:28:53.400,1426379351400000000,-18,144.400000000,37.4324699757822,-121.898918824788,6.3249306678772,-0.0018,0.0029,-0.0019,-0.0515,-0.3467,-9.8304,261.259203784571,-0.237147231404648,2.07021110536669,0.0019,15,9,31,15,38,,23,,gxInteger (24),RTK Integer (6),RTK Integer (6),,,0.014,0.013,0.036,0.0653171886449139,0.0177616916490555,0.0303667631419336,9,6,0,0
00:28:54.400,1426379352400000000,-18,145.400000000,37.432470015286,-121.898918857465,6.31888580322266,0.0007,0.0006,-0.0006,-0.0582,-0.3443,-9.8432,261.2510104881,-0.242361147340338,2.07256023232673,0.0006,15,9,31,15,38,,23,,gxInteger (24),RTK Integer (6),RTK Integer (6),,,0.015,0.015,0.036,0.0653171886449139,0.0177616916490555,0.0303667631419336,9,6,0,0
00:28:55.400,1426379353400000000,-18,146.400000000,37.4324700742173,-121.898918905418,6.31120586395264,0.003,-0.0008,0.0017,-0.0633,-0.3495,-9.8208,261.249119727376,-0.251757655180484,2.07319048590137,-0.0017,15,9,31,15,38,,23,,gxInteger (24),RTK Integer (6),RTK Integer (6),,,0.015,0.014,0.035,0.0670360620303063,0.0177616916490555,0.0303667631419336,9,6,0,0
00:28:56.400,1426379354400000000,-18,147.400000000,37.4324701118939,-121.898918980548,6.3067569732666,0.0034,-0.0032,0.0024,-0.0525,-0.3345,-9.8188,261.241155614024,-0.254278669479059,2.07055488004377,-0.0024,15,10,31,15,38,,22,,gxInteger (24),RTK Integer (6),RTK Integer (6),,,0.013,0.013,0.034,0.0664631042351755,0.0177616916490555,0.0303667631419336,9,6,0,0
00:28:57.400,1426379355400000000,-18,148.400000000,37.4324701397097,-121.89891899126,6.29914236068726,0.0032,-0.0026,0.0042,-0.0437,-0.3291,-9.8328,261.241155614024,-0.259893655871341,2.07571150019995,-0.0042,16,10,31,15,38,,22,,gxInteger (24),RTK Integer (6),RTK Integer (6),,,0.014,0.014,0.035,0.0670360620303063,0.0177616916490555,0.0303667631419336,9,6,0,0
00:28:58.400,1426379356400000000,-18,149.400000000,37.4324701554958,-121.898918972849,6.29663228988647,0.0034,-0.0011,0.0046,-0.0763,-0.342,-9.8382,261.238405416607,-0.249924190236065,2.06986733068961,-0.0046,15,10,33,16,40,,22,,gxInteger (24),RTK Integer (6),RTK Integer (6),,,0.014,0.014,0.034,0.068181977620568,0.0177616916490555,0.0303667631419336,9,7,0,0
00:28:59.400,1426379357400000000,-18,150.400000000,37.4324701811648,-121.898918971089,6.29328584671021,0.003,-0.0005,0.0033,-0.0667,-0.3358,-9.8446,261.229639162342,-0.239725541482736,2.06471071053343,-0.0033,16,10,31,15,38,,23,,gxInteger (24),RTK Integer (6),RTK Integer (6),,,0.013,0.012,0.033,0.0664631042351755,0.0177616916490555,0.0303667631419336,9,6,0,0
00:29:00.400,1426379358400000000,-18,151.400000000,37.4324701902391,-121.898918949861,6.29102325439453,0.0021,0.0004,0.002,-0.0816,-0.3402,-9.8383,261.221102091194,-0.245225936315992,2.06780468262714,-0.002,16,10,33,16,39,,22,,gxInteger (24),RTK Integer (6),RTK Integer (6),,,0.013,0.013,0.033,0.0664631042351755,0.0177616916490555,0.0303667631419336,9,7,0,0
00:29:01.400,1426379359400000000,-18,152.400000000,37.432470149291,-121.89891896488,6.29320812225342,-0.0003,0.0007,-0.0006,-0.0965,-0.3511,-9.8121,261.212049358031,-0.246257260347228,2.06408045695879,0.0006,15,10,32,16,39,,22,,gxInteger (24),RTK Integer (6),RTK Integer (6),,,0.013,0.013,0.032,0.068181977620568,0.0177616916490555,0.0303667631419336,9,7,0,0
00:29:02.400,1426379360400000000,-18,153.400000000,37.4324701272,-121.898918994929,6.29253149032593,-0.0011,-0.0009,0,-0.104,-0.3455,-9.837,261.209700231071,-0.256284021762017,2.06430964007684,0,15,10,31,15,38,,23,,gxInteger (24),RTK Integer (6),RTK Integer (6),,,0.012,0.012,0.031,0.0676090198254371,0.0177616916490555,0.0303667631419336,9,6,0,0
00:29:03.400,1426379361400000000,-18,154.400000000,37.4324701133353,-121.898918972271,6.29220342636108,-0.0012,0.0004,0.0003,-0.0932,-0.3501,-9.8157,261.209757526851,-0.262758444846996,2.06958085179205,-0.0003,15,10,31,15,39,,23,,gxInteger (24),RTK Integer (6),RTK Integer (6),,,0.013,0.013,0.031,0.068181977620568,0.0177616916490555,0.0303667631419336,9,6,0,0
00:29:04.400,1426379362400000000,-18,155.400000000,37.4324701052285,-121.898918927117,6.29096794128418,-0.0006,0.0004,0.0001,-0.1018,-0.3394,-9.8623,261.213940118755,-0.249408528220447,2.06557014722613,-0.0001,15,10,32,15,39,,22,,gxInteger (24),RTK Integer (6),RTK Integer (6),,,0.013,0.013,0.03,0.0687549354156988,0.0177616916490555,0.0303667631419336,9,6,0,0
00:29:05.400,1426379363400000000,-18,156.400000000,37.4324701080783,-121.89891887846,6.2916784286499,-0.0006,-0.0004,-0.0014,-0.0305,-0.3481,-9.7966,261.211304512898,-0.247918837953107,2.06379397806122,0.0014,15,10,32,15,39,,23,,gxInteger (24),RTK Integer (6),RTK Integer (6),,,0.012,0.012,0.028,0.0676090198254371,0.0177616916490555,0.0303667631419336,9,6,0,0
00:29:06.400,1426379364400000000,-18,157.400000000,37.4324701231903,-121.898918741826,6.29311466217041,-0.0013,-0.0015,-0.0008,-0.0115,-0.3556,-9.7216,261.203512286884,-0.245397823654532,2.06935166867399,0.0008,15,10,32,15,39,,23,,gxInteger (24),RTK Integer (6),RTK Integer (6),,,0.011,0.011,0.027,0.0676090198254371,0.0171887338539247,0.0280749319614103,9,6,0,0
00:29:07.400,1426379365400000000,-18,158.400000000,37.4324702339072,-121.89891857326,6.28549098968506,-0.0011,-0.0043,0.0018,-0.0331,-0.3577,-9.7695,261.191766652084,-0.24574159833161,2.08499341648107,-0.0018,15,10,32,15,39,,24,,gxInteger (24),RTK Integer (6),RTK Integer (6),,,0.009,0.009,0.026,0.0687549354156988,0.0160428182636631,0.0240642273954946,9,6,0,0
00:29:08.400,1426379366400000000,-18,159.400000000,37.4324702949915,-121.898918692096,6.27469444274902,-0.0019,-0.0038,0.001,-0.0804,-0.3383,-9.8389,261.188042426415,-0.262930332185535,2.10693770003458,-0.001,15,10,32,15,39,,24,,gxInteger (24),RTK Integer (6),RTK Integer (6),,,0.007,0.007,0.025,0.0676090198254371,0.0148969026734014,0.0200535228295788,9,6,0,0
00:29:09.400,1426379367400000000,-18,160.400000000,37.4324700268837,-121.898920598449,6.26991128921509,-0.0546,-0.3361,-0.0002,0.5995,-0.3622,-9.7845,261.180995045535,-0.171887338539247,2.14400806937954,0.0002,14,10,32,15,39,,24,gxInteger (24),gxInteger (24),RTK Integer (6),RTK Integer (6),,,0.009,0.01,0.027,0.0676090198254371,0.0126050714928781,0.0154698604685322,9,6,0,0
